$GPGGA,090000.00,2117.56134000,N,15749.00998000,W,1,05,2.87,20.00,M,-21.3213,M,,*56
$GPGGA,090000.10,2117.56134000,N,15749.00998000,W,1,05,2.87,20.00,M,-21.3213,M,,*57
$GPGGA,090000.20,2117.56134000,N,15749.00998000,W,1,05,2.87,20.00,M,-21.3213,M,,*54
$GPGGA,090000.30,2117.56134000,N,15749.00998000,W,1,05,2.87,20.00,M,-21.3213,M,,*55
$GPGGA,090000.40,2117.56134000,N,15749.00998000,W,1,05,2.87,20.00,M,-21.3213,M,,*52
$GPGGA,090000.50,2117.56134000,N,15749.00998000,W,1,05,2.87,20.00,M,-21.3213,M,,*53
$GPGGA,090000.60,2117.56134000,N,15749.00998000,W,1,05,2.87,20.00,M,-21.3213,M,,*50
$GPGGA,090000.70,2117.56134000,N,15749.00998000,W,1,05,2.87,20.00,M,-21.3213,M,,*51
$GPGGA,090000.80,2117.56134000,N,15749.00998000,W,1,05,2.87,20.00,M,-21.3213,M,,*5E
$GPGGA,090000.90,2117.56134000,N,15749.00998000,W,1,05,2.87,20.00,M,-21.3213,M,,*5F
$GPGGA,090001.00,2117.56134000,N,15749.00998000,W,1,05,2.87,20.00,M,-21.3213,M,,*57
$GPGGA,090001.10,2117.56134000,N,15749.00998000,W,1,05,2.87,20.00,M,-21.3213,M,,*56
$GPGGA,090001.20,2117.56134000,N,15749.00998000,W,1,05,2.87,20.00,M,-21.3213,M,,*55
$GPGGA,090001.30,2117.56134000,N,15749.00998000,W,1,05,2.87,20.00,M,-21.3213,M,,*54
$GPGGA,090001.40,2117.56134000,N,15749.00998000,W,1,05,2.87,20.00,M,-21.3213,M,,*53
$GPGGA,090001.50,2117.56134000,N,15749.00998000,W,1,05,2.87,20.00,M,-21.3213,M,,*52
$GPGGA,090001.60,2117.56134000,N,15749.00998000,W,1,05,2.87,20.00,M,-21.3213,M,,*51
$GPGGA,090001.70,2117.56134000,N,15749.00998000,W,1,05,2.87,20.00,M,-21.3213,M,,*50
$GPGGA,090001.80,2117.56134000,N,15749.00998000,W,1,05,2.87,20.00,M,-21.3213,M,,*5F
$GPGGA,090001.90,2117.56134000,N,15749.00998000,W,1,05,2.87,20.00,M,-21.3213,M,,*5E
$GPGGA,090002.00,2117.56134000,N,15749.00998000,W,1,05,2.87,20.00,M,-21.3213,M,,*54
$GPGGA,090002.10,2117.56134000,N,15749.00998000,W,1,05,2.87,20.00,M,-21.3213,M,,*55
$GPGGA,090002.20,2117.56134000,N,15749.00998000,W,1,05,2.87,20.00,M,-21.3213,M,,*56
$GPGGA,090002.30,2117.56134000,N,15749.00998000,W,1,05,2.87,20.00,M,-21.3213,M,,*57
$GPGGA,090002.40,2117.56134000,N,15749.00998000,W,1,05,2.87,20.00,M,-21.3213,M,,*50
$GPGGA,090002.50,2117.56134000,N,15749.00998000,W,1,05,2.87,20.00,M,-21.3213,M,,*51
$GPGGA,090002.60,2117.56134000,N,15749.00998000,W,1,05,2.87,20.00,M,-21.3213,M,,*52
$GPGGA,090002.70,2117.56134000,N,15749.00998000,W,1,05,2.87,20.00,M,-21.3213,M,,*53
$GPGGA,090002.80,2117.56134000,N,15749.00998000,W,1,05,2.87,20.00,M,-21.3213,M,,*5C
$GPGGA,090002.90,2117.56134000,N,15749.00998000,W,1,05,2.87,20.00,M,-21.3213,M,,*5D
$GPGGA,090003.00,2117.56134000,N,15749.00998000,W,1,05,2.87,20.00,M,-21.3213,M,,*55
$GPGGA,090003.10,2117.56134000,N,15749.00998000,W,1,05,2.87,20.00,M,-21.3213,M,,*54
$GPGGA,090003.20,2117.56134000,N,15749.00998000,W,1,05,2.87,20.00,M,-21.3213,M,,*57
$GPGGA,090003.30,2117.56134000,N,15749.00998000,W,1,05,2.87,20.00,M,-21.3213,M,,*56
$GPGGA,090003.40,2117.56134000,N,15749.00998000,W,1,05,2.87,20.00,M,-21.3213,M,,*51
$GPGGA,090003.50,2117.56134000,N,15749.00998000,W,1,05,2.87,20.00,M,-21.3213,M,,*50
$GPGGA,090003.60,2117.56134000,N,15749.00998000,W,1,05,2.87,20.00,M,-21.3213,M,,*53
$GPGGA,090003.70,2117.56134000,N,15749.00998000,W,1,05,2.87,20.00,M,-21.3213,M,,*52
$GPGGA,090003.80,2117.56134000,N,15749.00998000,W,1,05,2.87,20.00,M,-21.3213,M,,*5D
$GPGGA,090003.90,2117.56134000,N,15749.00998000,W,1,05,2.87,20.00,M,-21.3213,M,,*5C
$GPGGA,090004.00,2117.56134000,N,15749.00998000,W,1,05,2.87,20.00,M,-21.3213,M,,*52
$GPGGA,090004.10,2117.56134000,N,15749.00998000,W,1,05,2.87,20.00,M,-21.3213,M,,*53
$GPGGA,090004.20,2117.56134000,N,15749.00998000,W,1,05,2.87,20.00,M,-21.3213,M,,*50
$GPGGA,090004.30,2117.56134000,N,15749.00998000,W,1,05,2.87,20.00,M,-21.3213,M,,*51
$GPGGA,090004.40,2117.56134000,N,15749.00998000,W,1,05,2.87,20.00,M,-21.3213,M,,*56
$GPGGA,090004.50,2117.56134000,N,15749.00998000,W,1,05,2.87,20.00,M,-21.3213,M,,*57
$GPGGA,090004.60,2117.56134000,N,15749.00998000,W,1,05,2.87,20.00,M,-21.3213,M,,*54
$GPGGA,090004.70,2117.56134000,N,15749.00998000,W,1,05,2.87,20.00,M,-21.3213,M,,*55
$GPGGA,090004.80,2117.56134000,N,15749.00998000,W,1,05,2.87,20.00,M,-21.3213,M,,*5A
$GPGGA,090004.90,2117.56134000,N,15749.00998000,W,1,05,2.87,20.00,M,-21.3213,M,,*5B
$GPGGA,090005.00,2117.56134000,N,15749.00998000,W,1,05,2.87,20.00,M,-21.3213,M,,*53
$GPGGA,090005.10,2117.56134000,N,15749.00998000,W,1,05,2.87,20.00,M,-21.3213,M,,*52
$GPGGA,090005.20,2117.56134000,N,15749.00998000,W,1,05,2.87,20.00,M,-21.3213,M,,*51
$GPGGA,090005.30,2117.56134000,N,15749.00998000,W,1,05,2.87,20.00,M,-21.3213,M,,*50
$GPGGA,090005.40,2117.56134000,N,15749.00998000,W,1,05,2.87,20.00,M,-21.3213,M,,*57
$GPGGA,090005.50,2117.56134000,N,15749.00998000,W,1,05,2.87,20.00,M,-21.3213,M,,*56
$GPGGA,090005.60,2117.56134000,N,15749.00998000,W,1,05,2.87,20.00,M,-21.3213,M,,*55
$GPGGA,090005.70,2117.56134000,N,15749.00998000,W,1,05,2.87,20.00,M,-21.3213,M,,*54
$GPGGA,090005.80,2117.56134000,N,15749.00998000,W,1,05,2.87,20.00,M,-21.3213,M,,*5B
$GPGGA,090005.90,2117.56134000,N,15749.00998000,W,1,05,2.87,20.00,M,-21.3213,M,,*5A
$GPGGA,090006.00,2117.56134000,N,15749.00998000,W,1,05,2.87,20.00,M,-21.3213,M,,*50
$GPGGA,090006.10,2117.56134000,N,15749.00998000,W,1,05,2.87,20.00,M,-21.3213,M,,*51
$GPGGA,090006.20,2117.56134000,N,15749.00998000,W,1,05,2.87,20.00,M,-21.3213,M,,*52
$GPGGA,090006.30,2117.56134000,N,15749.00998000,W,1,05,2.87,20.00,M,-21.3213,M,,*53
$GPGGA,090006.40,2117.56134000,N,15749.00998000,W,1,05,2.87,20.00,M,-21.3213,M,,*54
$GPGGA,090006.50,2117.56134000,N,15749.00998000,W,1,05,2.87,20.00,M,-21.3213,M,,*55
$GPGGA,090006.60,2117.56134000,N,15749.00998000,W,1,05,2.87,20.00,M,-21.3213,M,,*56
$GPGGA,090006.70,2117.56134000,N,15749.00998000,W,1,05,2.87,20.00,M,-21.3213,M,,*57
$GPGGA,090006.80,2117.56134000,N,15749.00998000,W,1,05,2.87,20.00,M,-21.3213,M,,*58
$GPGGA,090006.90,2117.56134000,N,15749.00998000,W,1,05,2.87,20.00,M,-21.3213,M,,*59
$GPGGA,090007.00,2117.56134000,N,15749.00998000,W,1,05,2.87,20.00,M,-21.3213,M,,*51
$GPGGA,090007.10,2117.56134000,N,15749.00998000,W,1,05,2.87,20.00,M,-21.3213,M,,*50
$GPGGA,090007.20,2117.56134000,N,15749.00998000,W,1,05,2.87,20.00,M,-21.3213,M,,*53
$GPGGA,090007.30,2117.56134000,N,15749.00998000,W,1,05,2.87,20.00,M,-21.3213,M,,*52
$GPGGA,090007.40,2117.56134000,N,15749.00998000,W,1,05,2.87,20.00,M,-21.3213,M,,*55
$GPGGA,090007.50,2117.56134000,N,15749.00998000,W,1,05,2.87,20.00,M,-21.3213,M,,*54
$GPGGA,090007.60,2117.56134000,N,15749.00998000,W,1,05,2.87,20.00,M,-21.3213,M,,*57
$GPGGA,090007.70,2117.56134000,N,15749.00998000,W,1,05,2.87,20.00,M,-21.3213,M,,*56
$GPGGA,090007.80,2117.56134000,N,15749.00998000,W,1,05,2.87,20.00,M,-21.3213,M,,*59
$GPGGA,090007.90,2117.56134000,N,15749.00998000,W,1,05,2.87,20.00,M,-21.3213,M,,*58
$GPGGA,090008.00,2117.56134000,N,15749.00998000,W,1,05,2.87,20.00,M,-21.3213,M,,*5E
$GPGGA,090008.10,2117.56134000,N,15749.00998000,W,1,05,2.87,20.00,M,-21.3213,M,,*5F
$GPGGA,090008.20,2117.56134000,N,15749.00998000,W,1,05,2.87,20.00,M,-21.3213,M,,*5C
$GPGGA,090008.30,2117.56134000,N,15749.00998000,W,1,05,2.87,20.00,M,-21.3213,M,,*5D
$GPGGA,090008.40,2117.56134000,N,15749.00998000,W,1,05,2.87,20.00,M,-21.3213,M,,*5A
$GPGGA,090008.50,2117.56134000,N,15749.00998000,W,1,05,2.87,20.00,M,-21.3213,M,,*5B
$GPGGA,090008.60,2117.56134000,N,15749.00998000,W,1,05,2.87,20.00,M,-21.3213,M,,*58
$GPGGA,090008.70,2117.56134000,N,15749.00998000,W,1,05,2.87,20.00,M,-21.3213,M,,*59
$GPGGA,090008.80,2117.56134000,N,15749.00998000,W,1,05,2.87,20.00,M,-21.3213,M,,*56
$GPGGA,090008.90,2117.56134000,N,15749.00998000,W,1,05,2.87,20.00,M,-21.3213,M,,*57
$GPGGA,090009.00,2117.56134000,N,15749.00998000,W,1,05,2.87,20.00,M,-21.3213,M,,*5F
$GPGGA,090009.10,2117.56134000,N,15749.00998000,W,1,05,2.87,20.00,M,-21.3213,M,,*5E
$GPGGA,090009.20,2117.56134000,N,15749.00998000,W,1,05,2.87,20.00,M,-21.3213,M,,*5D
$GPGGA,090009.30,2117.56134000,N,15749.00998000,W,1,05,2.87,20.00,M,-21.3213,M,,*5C
$GPGGA,090009.40,2117.56134000,N,15749.00998000,W,1,05,2.87,20.00,M,-21.3213,M,,*5B
$GPGGA,090009.50,2117.56134000,N,15749.00998000,W,1,05,2.87,20.00,M,-21.3213,M,,*5A
$GPGGA,090009.60,2117.56134000,N,15749.00998000,W,1,05,2.87,20.00,M,-21.3213,M,,*59
$GPGGA,090009.70,2117.56134000,N,15749.00998000,W,1,05,2.87,20.00,M,-21.3213,M,,*58
$GPGGA,090009.80,2117.56134000,N,15749.00998000,W,1,05,2.87,20.00,M,-21.3213,M,,*57
$GPGGA,090009.90,2117.56134000,N,15749.00998000,W,1,05,2.87,20.00,M,-21.3213,M,,*56
$GPGGA,090010.00,2117.56134000,N,15749.00998000,W,1,05,2.87,20.00,M,-21.3213,M,,*57
$GPGGA,090010.10,2117.56134000,N,15749.00998000,W,1,05,2.87,20.00,M,-21.3213,M,,*56
$GPGGA,090010.20,2117.56134000,N,15749.00998000,W,1,05,2.87,20.00,M,-21.3213,M,,*55
$GPGGA,090010.30,2117.56134000,N,15749.00998000,W,1,05,2.87,20.00,M,-21.3213,M,,*54
$GPGGA,090010.40,2117.56134000,N,15749.00998000,W,1,05,2.87,20.00,M,-21.3213,M,,*53
$GPGGA,090010.50,2117.56134000,N,15749.00998000,W,1,05,2.87,20.00,M,-21.3213,M,,*52
$GPGGA,090010.60,2117.56134000,N,15749.00998000,W,1,05,2.87,20.00,M,-21.3213,M,,*51
$GPGGA,090010.70,2117.56134000,N,15749.00998000,W,1,05,2.87,20.00,M,-21.3213,M,,*50
$GPGGA,090010.80,2117.56134000,N,15749.00998000,W,1,05,2.87,20.00,M,-21.3213,M,,*5F
$GPGGA,090010.90,2117.56134000,N,15749.00998000,W,1,05,2.87,20.00,M,-21.3213,M,,*5E
$GPGGA,090011.00,2117.56134000,N,15749.00998000,W,1,05,2.87,20.00,M,-21.3213,M,,*56
$GPGGA,090011.10,2117.56134000,N,15749.00998000,W,1,05,2.87,20.00,M,-21.3213,M,,*57
$GPGGA,090011.20,2117.56134000,N,15749.00998000,W,1,05,2.87,20.00,M,-21.3213,M,,*54
$GPGGA,090011.30,2117.56134000,N,15749.00998000,W,1,05,2.87,20.00,M,-21.3213,M,,*55
$GPGGA,090011.40,2117.56134000,N,15749.00998000,W,1,05,2.87,20.00,M,-21.3213,M,,*52
$GPGGA,090011.50,2117.56134000,N,15749.00998000,W,1,05,2.87,20.00,M,-21.3213,M,,*53
$GPGGA,090011.60,2117.56134000,N,15749.00998000,W,1,05,2.87,20.00,M,-21.3213,M,,*50
$GPGGA,090011.70,2117.56134000,N,15749.00998000,W,1,05,2.87,20.00,M,-21.3213,M,,*51
$GPGGA,090011.80,2117.56134000,N,15749.00998000,W,1,05,2.87,20.00,M,-21.3213,M,,*5E
$GPGGA,090011.90,2117.56134000,N,15749.00998000,W,1,05,2.87,20.00,M,-21.3213,M,,*5F
$GPGGA,090012.00,2117.56134000,N,15749.00998000,W,1,05,2.87,20.00,M,-21.3213,M,,*55
$GPGGA,090012.10,2117.56134000,N,15749.00998000,W,1,05,2.87,20.00,M,-21.3213,M,,*54
$GPGGA,090012.20,2117.56134000,N,15749.00998000,W,1,05,2.87,20.00,M,-21.3213,M,,*57
$GPGGA,090012.30,2117.56134000,N,15749.00998000,W,1,05,2.87,20.00,M,-21.3213,M,,*56
$GPGGA,090012.40,2117.56134000,N,15749.00998000,W,1,05,2.87,20.00,M,-21.3213,M,,*51
$GPGGA,090012.50,2117.56134000,N,15749.00998000,W,1,05,2.87,20.00,M,-21.3213,M,,*50
$GPGGA,090012.60,2117.56134000,N,15749.00998000,W,1,05,2.87,20.00,M,-21.3213,M,,*53
$GPGGA,090012.70,2117.56134000,N,15749.00998000,W,1,05,2.87,20.00,M,-21.3213,M,,*52
$GPGGA,090012.80,2117.56134000,N,15749.00998000,W,1,05,2.87,20.00,M,-21.3213,M,,*5D
$GPGGA,090012.90,2117.56134000,N,15749.00998000,W,1,05,2.87,20.00,M,-21.3213,M,,*5C
$GPGGA,090013.00,2117.56134000,N,15749.00998000,W,1,05,2.87,20.00,M,-21.3213,M,,*54
$GPGGA,090013.10,2117.56134000,N,15749.00998000,W,1,05,2.87,20.00,M,-21.3213,M,,*55
$GPGGA,090013.20,2117.56134000,N,15749.00998000,W,1,05,2.87,20.00,M,-21.3213,M,,*56
$GPGGA,090013.30,2117.56134000,N,15749.00998000,W,1,05,2.87,20.00,M,-21.3213,M,,*57
$GPGGA,090013.40,2117.56134000,N,15749.00998000,W,1,05,2.87,20.00,M,-21.3213,M,,*50
$GPGGA,090013.50,2117.56134000,N,15749.00998000,W,1,05,2.87,20.00,M,-21.3213,M,,*51
$GPGGA,090013.60,2117.56134000,N,15749.00998000,W,1,05,2.87,20.00,M,-21.3213,M,,*52
$GPGGA,090013.70,2117.56134000,N,15749.00998000,W,1,05,2.87,20.00,M,-21.3213,M,,*53
$GPGGA,090013.80,2117.56134000,N,15749.00998000,W,1,05,2.87,20.00,M,-21.3213,M,,*5C
$GPGGA,090013.90,2117.56134000,N,15749.00998000,W,1,05,2.87,20.00,M,-21.3213,M,,*5D
$GPGGA,090014.00,2117.56134000,N,15749.00998000,W,1,05,2.87,20.00,M,-21.3213,M,,*53
$GPGGA,090014.10,2117.56134000,N,15749.00998000,W,1,05,2.87,20.00,M,-21.3213,M,,*52
$GPGGA,090014.20,2117.56134000,N,15749.00998000,W,1,05,2.87,20.00,M,-21.3213,M,,*51
$GPGGA,090014.30,2117.56134000,N,15749.00998000,W,1,05,2.87,20.00,M,-21.3213,M,,*50
$GPGGA,090014.40,2117.56134000,N,15749.00998000,W,1,05,2.87,20.00,M,-21.3213,M,,*57
$GPGGA,090014.50,2117.56134000,N,15749.00998000,W,1,05,2.87,20.00,M,-21.3213,M,,*56
$GPGGA,090014.60,2117.56134000,N,15749.00998000,W,1,05,2.87,20.00,M,-21.3213,M,,*55
$GPGGA,090014.70,2117.56134000,N,15749.00998000,W,1,05,2.87,20.00,M,-21.3213,M,,*54
$GPGGA,090014.80,2117.56134000,N,15749.00998000,W,1,05,2.87,20.00,M,-21.3213,M,,*5B
$GPGGA,090014.90,2117.56134000,N,15749.00998000,W,1,05,2.87,20.00,M,-21.3213,M,,*5A
$GPGGA,090015.00,2117.56134000,N,15749.00998000,W,1,05,2.87,20.00,M,-21.3213,M,,*52
$GPGGA,090015.10,2117.56134000,N,15749.00998000,W,1,05,2.87,20.00,M,-21.3213,M,,*53
$GPGGA,090015.20,2117.56134000,N,15749.00998000,W,1,05,2.87,20.00,M,-21.3213,M,,*50
$GPGGA,090015.30,2117.56134000,N,15749.00998000,W,1,05,2.87,20.00,M,-21.3213,M,,*51
$GPGGA,090015.40,2117.56134000,N,15749.00998000,W,1,05,2.87,20.00,M,-21.3213,M,,*56
$GPGGA,090015.50,2117.56134000,N,15749.00998000,W,1,05,2.87,20.00,M,-21.3213,M,,*57
$GPGGA,090015.60,2117.56134000,N,15749.00998000,W,1,05,2.87,20.00,M,-21.3213,M,,*54
$GPGGA,090015.70,2117.56134000,N,15749.00998000,W,1,05,2.87,20.00,M,-21.3213,M,,*55
$GPGGA,090015.80,2117.56134000,N,15749.00998000,W,1,05,2.87,20.00,M,-21.3213,M,,*5A
$GPGGA,090015.90,2117.56134000,N,15749.00998000,W,1,05,2.87,20.00,M,-21.3213,M,,*5B
$GPGGA,090016.00,2117.56134000,N,15749.00998000,W,1,05,2.87,20.00,M,-21.3213,M,,*51
$GPGGA,090016.10,2117.56134000,N,15749.00998000,W,1,05,2.87,20.00,M,-21.3213,M,,*50
$GPGGA,090016.20,2117.56134000,N,15749.00998000,W,1,05,2.87,20.00,M,-21.3213,M,,*53
$GPGGA,090016.30,2117.56134000,N,15749.00998000,W,1,05,2.87,20.00,M,-21.3213,M,,*52
$GPGGA,090016.40,2117.56134000,N,15749.00998000,W,1,05,2.87,20.00,M,-21.3213,M,,*55
$GPGGA,090016.50,2117.56134000,N,15749.00998000,W,1,05,2.87,20.00,M,-21.3213,M,,*54
$GPGGA,090016.60,2117.56134000,N,15749.00998000,W,1,05,2.87,20.00,M,-21.3213,M,,*57
$GPGGA,090016.70,2117.56134000,N,15749.00998000,W,1,05,2.87,20.00,M,-21.3213,M,,*56
$GPGGA,090016.80,2117.56134000,N,15749.00998000,W,1,05,2.87,20.00,M,-21.3213,M,,*59
$GPGGA,090016.90,2117.56134000,N,15749.00998000,W,1,05,2.87,20.00,M,-21.3213,M,,*58
$GPGGA,090017.00,2117.56134000,N,15749.00998000,W,1,05,2.87,20.00,M,-21.3213,M,,*50
$GPGGA,090017.10,2117.56134000,N,15749.00998000,W,1,05,2.87,20.00,M,-21.3213,M,,*51
$GPGGA,090017.20,2117.56134000,N,15749.00998000,W,1,05,2.87,20.00,M,-21.3213,M,,*52
$GPGGA,090017.30,2117.56134000,N,15749.00998000,W,1,05,2.87,20.00,M,-21.3213,M,,*53
$GPGGA,090017.40,2117.56134000,N,15749.00998000,W,1,05,2.87,20.00,M,-21.3213,M,,*54
$GPGGA,090017.50,2117.56134000,N,15749.00998000,W,1,05,2.87,20.00,M,-21.3213,M,,*55
$GPGGA,090017.60,2117.56134000,N,15749.00998000,W,1,05,2.87,20.00,M,-21.3213,M,,*56
$GPGGA,090017.70,2117.56134000,N,15749.00998000,W,1,05,2.87,20.00,M,-21.3213,M,,*57
$GPGGA,090017.80,2117.56134000,N,15749.00998000,W,1,05,2.87,20.00,M,-21.3213,M,,*58
$GPGGA,090017.90,2117.56134000,N,15749.00998000,W,1,05,2.87,20.00,M,-21.3213,M,,*59
$GPGGA,090018.00,2117.56134000,N,15749.00998000,W,1,05,2.87,20.00,M,-21.3213,M,,*5F
$GPGGA,090018.10,2117.56134000,N,15749.00998000,W,1,05,2.87,20.00,M,-21.3213,M,,*5E
$GPGGA,090018.20,2117.56134000,N,15749.00998000,W,1,05,2.87,20.00,M,-21.3213,M,,*5D
$GPGGA,090018.30,2117.56134000,N,15749.00998000,W,1,05,2.87,20.00,M,-21.3213,M,,*5C
$GPGGA,090018.40,2117.56134000,N,15749.00998000,W,1,05,2.87,20.00,M,-21.3213,M,,*5B
$GPGGA,090018.50,2117.56134000,N,15749.00998000,W,1,05,2.87,20.00,M,-21.3213,M,,*5A
$GPGGA,090018.60,2117.56134000,N,15749.00998000,W,1,05,2.87,20.00,M,-21.3213,M,,*59
$GPGGA,090018.70,2117.56134000,N,15749.00998000,W,1,05,2.87,20.00,M,-21.3213,M,,*58
$GPGGA,090018.80,2117.56134000,N,15749.00998000,W,1,05,2.87,20.00,M,-21.3213,M,,*57
$GPGGA,090018.90,2117.56134000,N,15749.00998000,W,1,05,2.87,20.00,M,-21.3213,M,,*56
$GPGGA,090019.00,2117.56134000,N,15749.00998000,W,1,05,2.87,20.00,M,-21.3213,M,,*5E
$GPGGA,090019.10,2117.56134000,N,15749.00998000,W,1,05,2.87,20.00,M,-21.3213,M,,*5F
$GPGGA,090019.20,2117.56134000,N,15749.00998000,W,1,05,2.87,20.00,M,-21.3213,M,,*5C
$GPGGA,090019.30,2117.56134000,N,15749.00998000,W,1,05,2.87,20.00,M,-21.3213,M,,*5D
$GPGGA,090019.40,2117.56134000,N,15749.00998000,W,1,05,2.87,20.00,M,-21.3213,M,,*5A
$GPGGA,090019.50,2117.56134000,N,15749.00998000,W,1,05,2.87,20.00,M,-21.3213,M,,*5B
$GPGGA,090019.60,2117.56134000,N,15749.00998000,W,1,05,2.87,20.00,M,-21.3213,M,,*58
$GPGGA,090019.70,2117.56134000,N,15749.00998000,W,1,05,2.87,20.00,M,-21.3213,M,,*59
$GPGGA,090019.80,2117.56134000,N,15749.00998000,W,1,05,2.87,20.00,M,-21.3213,M,,*56
$GPGGA,090019.90,2117.56134000,N,15749.00998000,W,1,05,2.87,20.00,M,-21.3213,M,,*57
$GPGGA,090020.00,2117.56134000,N,15749.00998000,W,1,05,2.87,20.00,M,-21.3213,M,,*54
$GPGGA,090020.10,2117.56134000,N,15749.00998000,W,1,05,2.87,20.00,M,-21.3213,M,,*55
$GPGGA,090020.20,2117.56134000,N,15749.00998000,W,1,05,2.87,20.00,M,-21.3213,M,,*56
$GPGGA,090020.30,2117.56134000,N,15749.00998000,W,1,05,2.87,20.00,M,-21.3213,M,,*57
$GPGGA,090020.40,2117.56134000,N,15749.00998000,W,1,05,2.87,20.00,M,-21.3213,M,,*50
$GPGGA,090020.50,2117.56134000,N,15749.00998000,W,1,05,2.87,20.00,M,-21.3213,M,,*51
$GPGGA,090020.60,2117.56134000,N,15749.00998000,W,1,05,2.87,20.00,M,-21.3213,M,,*52
$GPGGA,090020.70,2117.56134000,N,15749.00998000,W,1,05,2.87,20.00,M,-21.3213,M,,*53
$GPGGA,090020.80,2117.56134000,N,15749.00998000,W,1,05,2.87,20.00,M,-21.3213,M,,*5C
$GPGGA,090020.90,2117.56134000,N,15749.00998000,W,1,05,2.87,20.00,M,-21.3213,M,,*5D
$GPGGA,090021.00,2117.56134000,N,15749.00998000,W,1,05,2.87,20.00,M,-21.3213,M,,*55
$GPGGA,090021.10,2117.56134000,N,15749.00998006,W,1,05,2.87,20.00,M,-21.3213,M,,*52
$GPGGA,090021.20,2117.56134000,N,15749.00998023,W,1,05,2.87,20.00,M,-21.3213,M,,*56
$GPGGA,090021.30,2117.56134000,N,15749.00998052,W,1,05,2.87,20.00,M,-21.3213,M,,*51
$GPGGA,090021.40,2117.56134000,N,15749.00998093,W,1,05,2.87,20.00,M,-21.3213,M,,*5B
$GPGGA,090021.50,2117.56134000,N,15749.00998146,W,1,05,2.87,20.00,M,-21.3213,M,,*53
$GPGGA,090021.60,2117.56134000,N,15749.00998209,W,1,05,2.87,20.00,M,-21.3213,M,,*58
$GPGGA,090021.70,2117.56134000,N,15749.00998285,W,1,05,2.87,20.00,M,-21.3213,M,,*5D
$GPGGA,090021.80,2117.56134000,N,15749.00998372,W,1,05,2.87,20.00,M,-21.3213,M,,*5B
$GPGGA,090021.90,2117.56134000,N,15749.00998471,W,1,05,2.87,20.00,M,-21.3213,M,,*5E
$GPGGA,090022.00,2117.56134000,N,15749.00998582,W,1,05,2.87,20.00,M,-21.3213,M,,*59
$GPGGA,090022.10,2117.56134000,N,15749.00998704,W,1,05,2.87,20.00,M,-21.3213,M,,*54
$GPGGA,090022.20,2117.56134000,N,15749.00998837,W,1,05,2.87,20.00,M,-21.3213,M,,*58
$GPGGA,090022.30,2117.56134000,N,15749.00998983,W,1,05,2.87,20.00,M,-21.3213,M,,*57
$GPGGA,090022.40,2117.56134000,N,15749.00999140,W,1,05,2.87,20.00,M,-21.3213,M,,*56
$GPGGA,090022.50,2117.56134000,N,15749.00999308,W,1,05,2.87,20.00,M,-21.3213,M,,*59
$GPGGA,090022.60,2117.56134000,N,15749.00999488,W,1,05,2.87,20.00,M,-21.3213,M,,*55
$GPGGA,090022.70,2117.56134000,N,15749.00999680,W,1,05,2.87,20.00,M,-21.3213,M,,*5E
$GPGGA,090022.80,2117.56134000,N,15749.00999884,W,1,05,2.87,20.00,M,-21.3213,M,,*5B
$GPGGA,090022.90,2117.56134000,N,15749.01000099,W,1,05,2.87,20.00,M,-21.3213,M,,*56
$GPGGA,090023.00,2117.56134000,N,15749.01000325,W,1,05,2.87,20.00,M,-21.3213,M,,*5A
$GPGGA,090023.10,2117.56134000,N,15749.01000564,W,1,05,2.87,20.00,M,-21.3213,M,,*58
$GPGGA,090023.20,2117.56134000,N,15749.01000814,W,1,05,2.87,20.00,M,-21.3213,M,,*51
$GPGGA,090023.30,2117.56134000,N,15749.01001075,W,1,05,2.87,20.00,M,-21.3213,M,,*5E
$GPGGA,090023.40,2117.56134000,N,15749.01001348,W,1,05,2.87,20.00,M,-21.3213,M,,*54
$GPGGA,090023.50,2117.56134000,N,15749.01001633,W,1,05,2.87,20.00,M,-21.3213,M,,*5C
$GPGGA,090023.60,2117.56134000,N,15749.01001930,W,1,05,2.87,20.00,M,-21.3213,M,,*53
$GPGGA,090023.70,2117.56134000,N,15749.01002238,W,1,05,2.87,20.00,M,-21.3213,M,,*52
$GPGGA,090023.80,2117.56134000,N,15749.01002557,W,1,05,2.87,20.00,M,-21.3213,M,,*53
$GPGGA,090023.90,2117.56134000,N,15749.01002889,W,1,05,2.87,20.00,M,-21.3213,M,,*5C
$GPGGA,090024.00,2117.56134000,N,15749.01003232,W,1,05,2.87,20.00,M,-21.3213,M,,*59
$GPGGA,090024.10,2117.56134000,N,15749.01003586,W,1,05,2.87,20.00,M,-21.3213,M,,*50
$GPGGA,090024.20,2117.56134000,N,15749.01003952,W,1,05,2.87,20.00,M,-21.3213,M,,*56
$GPGGA,090024.30,2117.56134000,N,15749.01004330,W,1,05,2.87,20.00,M,-21.3213,M,,*5E
$GPGGA,090024.40,2117.56134000,N,15749.01004719,W,1,05,2.87,20.00,M,-21.3213,M,,*56
$GPGGA,090024.50,2117.56134000,N,15749.01005120,W,1,05,2.87,20.00,M,-21.3213,M,,*5A
$GPGGA,090024.60,2117.56134000,N,15749.01005533,W,1,05,2.87,20.00,M,-21.3213,M,,*5F
$GPGGA,090024.70,2117.56134000,N,15749.01005957,W,1,05,2.87,20.00,M,-21.3213,M,,*50
$GPGGA,090024.80,2117.56134000,N,15749.01006393,W,1,05,2.87,20.00,M,-21.3213,M,,*5E
$GPGGA,090024.90,2117.56134000,N,15749.01006841,W,1,05,2.87,20.00,M,-21.3213,M,,*5B
$GPGGA,090025.00,2117.56134000,N,15749.01007300,W,1,05,2.87,20.00,M,-21.3213,M,,*5C
$GPGGA,090025.10,2117.56134000,N,15749.01007771,W,1,05,2.87,20.00,M,-21.3213,M,,*5F
$GPGGA,090025.20,2117.56134000,N,15749.01008253,W,1,05,2.87,20.00,M,-21.3213,M,,*56
$GPGGA,090025.30,2117.56134000,N,15749.01008747,W,1,05,2.87,20.00,M,-21.3213,M,,*57
$GPGGA,090025.40,2117.56134000,N,15749.01009253,W,1,05,2.87,20.00,M,-21.3213,M,,*51
$GPGGA,090025.50,2117.56134000,N,15749.01009770,W,1,05,2.87,20.00,M,-21.3213,M,,*54
$GPGGA,090025.60,2117.56134000,N,15749.01010299,W,1,05,2.87,20.00,M,-21.3213,M,,*5D
$GPGGA,090025.70,2117.56134000,N,15749.01010839,W,1,05,2.87,20.00,M,-21.3213,M,,*5C
$GPGGA,090025.80,2117.56134000,N,15749.01011391,W,1,05,2.87,20.00,M,-21.3213,M,,*5B
$GPGGA,090025.90,2117.56134000,N,15749.01011955,W,1,05,2.87,20.00,M,-21.3213,M,,*58
$GPGGA,090026.00,2117.56134000,N,15749.01012530,W,1,05,2.87,20.00,M,-21.3213,M,,*5E
$GPGGA,090026.10,2117.56134000,N,15749.01013117,W,1,05,2.87,20.00,M,-21.3213,M,,*5F
$GPGGA,090026.20,2117.56134000,N,15749.01013716,W,1,05,2.87,20.00,M,-21.3213,M,,*5B
$GPGGA,090026.30,2117.56134000,N,15749.01014326,W,1,05,2.87,20.00,M,-21.3213,M,,*5A
$GPGGA,090026.40,2117.56134000,N,15749.01014948,W,1,05,2.87,20.00,M,-21.3213,M,,*5F
$GPGGA,090026.50,2117.56134000,N,15749.01015581,W,1,05,2.87,20.00,M,-21.3213,M,,*56
$GPGGA,090026.60,2117.56134000,N,15749.01016226,W,1,05,2.87,20.00,M,-21.3213,M,,*5C
$GPGGA,090026.70,2117.56134000,N,15749.01016883,W,1,05,2.87,20.00,M,-21.3213,M,,*58
$GPGGA,090026.80,2117.56134000,N,15749.01017552,W,1,05,2.87,20.00,M,-21.3213,M,,*57
$GPGGA,090026.90,2117.56134000,N,15749.01018231,W,1,05,2.87,20.00,M,-21.3213,M,,*5B
$GPGGA,090027.00,2117.56134000,N,15749.01018923,W,1,05,2.87,20.00,M,-21.3213,M,,*5B
$GPGGA,090027.10,2117.56134000,N,15749.01019626,W,1,05,2.87,20.00,M,-21.3213,M,,*51
$GPGGA,090027.20,2117.56134000,N,15749.01020341,W,1,05,2.87,20.00,M,-21.3213,M,,*5C
$GPGGA,090027.30,2117.56134000,N,15749.01021068,W,1,05,2.87,20.00,M,-21.3213,M,,*54
$GPGGA,090027.40,2117.56134000,N,15749.01021806,W,1,05,2.87,20.00,M,-21.3213,M,,*53
$GPGGA,090027.50,2117.56134000,N,15749.01022555,W,1,05,2.87,20.00,M,-21.3213,M,,*5A
$GPGGA,090027.60,2117.56134000,N,15749.01023317,W,1,05,2.87,20.00,M,-21.3213,M,,*58
$GPGGA,090027.70,2117.56134000,N,15749.01024090,W,1,05,2.87,20.00,M,-21.3213,M,,*52
$GPGGA,090027.80,2117.56134000,N,15749.01024874,W,1,05,2.87,20.00,M,-21.3213,M,,*5F
$GPGGA,090027.90,2117.56134000,N,15749.01025670,W,1,05,2.87,20.00,M,-21.3213,M,,*55
$GPGGA,090028.00,2117.56134000,N,15749.01026478,W,1,05,2.87,20.00,M,-21.3213,M,,*5A
$GPGGA,090028.10,2117.56134000,N,15749.01027297,W,1,05,2.87,20.00,M,-21.3213,M,,*5D
$GPGGA,090028.20,2117.56134000,N,15749.01028128,W,1,05,2.87,20.00,M,-21.3213,M,,*56
$GPGGA,090028.30,2117.56134000,N,15749.01028971,W,1,05,2.87,20.00,M,-21.3213,M,,*53
$GPGGA,090028.40,2117.56134000,N,15749.01029825,W,1,05,2.87,20.00,M,-21.3213,M,,*55
$GPGGA,090028.50,2117.56134000,N,15749.01030691,W,1,05,2.87,20.00,M,-21.3213,M,,*5D
$GPGGA,090028.60,2117.56134000,N,15749.01031569,W,1,05,2.87,20.00,M,-21.3213,M,,*5B
$GPGGA,090028.70,2117.56134000,N,15749.01032458,W,1,05,2.87,20.00,M,-21.3213,M,,*5A
$GPGGA,090028.80,2117.56134000,N,15749.01033359,W,1,05,2.87,20.00,M,-21.3213,M,,*52
$GPGGA,090028.90,2117.56134000,N,15749.01034271,W,1,05,2.87,20.00,M,-21.3213,M,,*5F
$GPGGA,090029.00,2117.56134000,N,15749.01035195,W,1,05,2.87,20.00,M,-21.3213,M,,*5F
$GPGGA,090029.10,2117.56134000,N,15749.01036131,W,1,05,2.87,20.00,M,-21.3213,M,,*53
$GPGGA,090029.20,2117.56134000,N,15749.01037078,W,1,05,2.87,20.00,M,-21.3213,M,,*5D
$GPGGA,090029.30,2117.56134000,N,15749.01038037,W,1,05,2.87,20.00,M,-21.3213,M,,*58
$GPGGA,090029.40,2117.56134000,N,15749.01039008,W,1,05,2.87,20.00,M,-21.3213,M,,*52
$GPGGA,090029.50,2117.56134000,N,15749.01039990,W,1,05,2.87,20.00,M,-21.3213,M,,*5B
$GPGGA,090029.60,2117.56134000,N,15749.01040983,W,1,05,2.87,20.00,M,-21.3213,M,,*54
$GPGGA,090029.70,2117.56134000,N,15749.01041989,W,1,05,2.87,20.00,M,-21.3213,M,,*5E
$GPGGA,090029.80,2117.56134000,N,15749.01043006,W,1,05,2.87,20.00,M,-21.3213,M,,*5D
$GPGGA,090029.90,2117.56134000,N,15749.01044034,W,1,05,2.87,20.00,M,-21.3213,M,,*5A
$GPGGA,090030.00,2117.56134000,N,15749.01045075,W,1,05,2.87,20.00,M,-21.3213,M,,*5F
$GPGGA,090030.10,2117.56134000,N,15749.01046127,W,1,05,2.87,20.00,M,-21.3213,M,,*5B
$GPGGA,090030.20,2117.56134000,N,15749.01047190,W,1,05,2.87,20.00,M,-21.3213,M,,*55
$GPGGA,090030.30,2117.56134000,N,15749.01048265,W,1,05,2.87,20.00,M,-21.3213,M,,*52
$GPGGA,090030.40,2117.56134000,N,15749.01049352,W,1,05,2.87,20.00,M,-21.3213,M,,*51
$GPGGA,090030.50,2117.56134000,N,15749.01050450,W,1,05,2.87,20.00,M,-21.3213,M,,*5D
$GPGGA,090030.60,2117.56134000,N,15749.01051560,W,1,05,2.87,20.00,M,-21.3213,M,,*5D
$GPGGA,090030.70,2117.56134000,N,15749.01052682,W,1,05,2.87,20.00,M,-21.3213,M,,*50
$GPGGA,090030.80,2117.56134000,N,15749.01053815,W,1,05,2.87,20.00,M,-21.3213,M,,*5E
$GPGGA,090030.90,2117.56134000,N,15749.01054960,W,1,05,2.87,20.00,M,-21.3213,M,,*5B
$GPGGA,090031.00,2117.56134000,N,15749.01056115,W,1,05,2.87,20.00,M,-21.3213,M,,*5B
$GPGGA,090031.10,2117.56134000,N,15749.01057271,W,1,05,2.87,20.00,M,-21.3213,M,,*5A
$GPGGA,090031.20,2117.56134000,N,15749.01058428,W,1,05,2.87,20.00,M,-21.3213,M,,*5C
$GPGGA,090031.30,2117.56134000,N,15749.01059584,W,1,05,2.87,20.00,M,-21.3213,M,,*5B
$GPGGA,090031.40,2117.56134000,N,15749.01060741,W,1,05,2.87,20.00,M,-21.3213,M,,*5D
$GPGGA,090031.50,2117.56134000,N,15749.01061897,W,1,05,2.87,20.00,M,-21.3213,M,,*59
$GPGGA,090031.60,2117.56134000,N,15749.01063053,W,1,05,2.87,20.00,M,-21.3213,M,,*58
$GPGGA,090031.70,2117.56134000,N,15749.01064210,W,1,05,2.87,20.00,M,-21.3213,M,,*5B
$GPGGA,090031.80,2117.56134000,N,15749.01065366,W,1,05,2.87,20.00,M,-21.3213,M,,*55
$GPGGA,090031.90,2117.56134000,N,15749.01066523,W,1,05,2.87,20.00,M,-21.3213,M,,*50
$GPGGA,090032.00,2117.56134000,N,15749.01067679,W,1,05,2.87,20.00,M,-21.3213,M,,*57
$GPGGA,090032.10,2117.56134000,N,15749.01068836,W,1,05,2.87,20.00,M,-21.3213,M,,*5C
$GPGGA,090032.20,2117.56134000,N,15749.01069992,W,1,05,2.87,20.00,M,-21.3213,M,,*51
$GPGGA,090032.30,2117.56134000,N,15749.01071149,W,1,05,2.87,20.00,M,-21.3213,M,,*57
$GPGGA,090032.40,2117.56134000,N,15749.01072305,W,1,05,2.87,20.00,M,-21.3213,M,,*59
$GPGGA,090032.50,2117.56134000,N,15749.01073461,W,1,05,2.87,20.00,M,-21.3213,M,,*5C
$GPGGA,090032.60,2117.56134000,N,15749.01074618,W,1,05,2.87,20.00,M,-21.3213,M,,*54
$GPGGA,090032.70,2117.56134000,N,15749.01075774,W,1,05,2.87,20.00,M,-21.3213,M,,*5F
$GPGGA,090032.80,2117.56134000,N,15749.01076931,W,1,05,2.87,20.00,M,-21.3213,M,,*5C
$GPGGA,090032.90,2117.56134000,N,15749.01078087,W,1,05,2.87,20.00,M,-21.3213,M,,*57
$GPGGA,090033.00,2117.56134000,N,15749.01079244,W,1,05,2.87,20.00,M,-21.3213,M,,*53
$GPGGA,090033.10,2117.56134000,N,15749.01080400,W,1,05,2.87,20.00,M,-21.3213,M,,*52
$GPGGA,090033.20,2117.56134000,N,15749.01081557,W,1,05,2.87,20.00,M,-21.3213,M,,*53
$GPGGA,090033.30,2117.56134000,N,15749.01082713,W,1,05,2.87,20.00,M,-21.3213,M,,*53
$GPGGA,090033.40,2117.56134000,N,15749.01083869,W,1,05,2.87,20.00,M,-21.3213,M,,*57
$GPGGA,090033.50,2117.56134000,N,15749.01085026,W,1,05,2.87,20.00,M,-21.3213,M,,*53
$GPGGA,090033.60,2117.56134000,N,15749.01086182,W,1,05,2.87,20.00,M,-21.3213,M,,*5C
$GPGGA,090033.70,2117.56134000,N,15749.01087339,W,1,05,2.87,20.00,M,-21.3213,M,,*5E
$GPGGA,090033.80,2117.56134000,N,15749.01088495,W,1,05,2.87,20.00,M,-21.3213,M,,*5F
$GPGGA,090033.90,2117.56134000,N,15749.01089652,W,1,05,2.87,20.00,M,-21.3213,M,,*56
$GPGGA,090034.00,2117.56134000,N,15749.01090808,W,1,05,2.87,20.00,M,-21.3213,M,,*51
$GPGGA,090034.10,2117.56134000,N,15749.01091965,W,1,05,2.87,20.00,M,-21.3213,M,,*5B
$GPGGA,090034.20,2117.56134000,N,15749.01093121,W,1,05,2.87,20.00,M,-21.3213,M,,*52
$GPGGA,090034.30,2117.56134000,N,15749.01094277,W,1,05,2.87,20.00,M,-21.3213,M,,*54
$GPGGA,090034.40,2117.56134000,N,15749.01095434,W,1,05,2.87,20.00,M,-21.3213,M,,*53
$GPGGA,090034.50,2117.56134000,N,15749.01096590,W,1,05,2.87,20.00,M,-21.3213,M,,*5E
$GPGGA,090034.60,2117.56134000,N,15749.01097747,W,1,05,2.87,20.00,M,-21.3213,M,,*54
$GPGGA,090034.70,2117.56134000,N,15749.01098903,W,1,05,2.87,20.00,M,-21.3213,M,,*54
$GPGGA,090034.80,2117.56134000,N,15749.01100060,W,1,05,2.87,20.00,M,-21.3213,M,,*57
$GPGGA,090034.90,2117.56134000,N,15749.01101216,W,1,05,2.87,20.00,M,-21.3213,M,,*54
$GPGGA,090035.00,2117.56134000,N,15749.01102373,W,1,05,2.87,20.00,M,-21.3213,M,,*5D
$GPGGA,090035.10,2117.56134000,N,15749.01103529,W,1,05,2.87,20.00,M,-21.3213,M,,*54
$GPGGA,090035.20,2117.56134000,N,15749.01104685,W,1,05,2.87,20.00,M,-21.3213,M,,*55
$GPGGA,090035.30,2117.56134000,N,15749.01105842,W,1,05,2.87,20.00,M,-21.3213,M,,*50
$GPGGA,090035.40,2117.56134000,N,15749.01106998,W,1,05,2.87,20.00,M,-21.3213,M,,*52
$GPGGA,090035.50,2117.56134000,N,15749.01108155,W,1,05,2.87,20.00,M,-21.3213,M,,*54
$GPGGA,090035.60,2117.56134000,N,15749.01109311,W,1,05,2.87,20.00,M,-21.3213,M,,*54
$GPGGA,090035.70,2117.56134000,N,15749.01110468,W,1,05,2.87,20.00,M,-21.3213,M,,*54
$GPGGA,090035.80,2117.56134000,N,15749.01111624,W,1,05,2.87,20.00,M,-21.3213,M,,*50
$GPGGA,090035.90,2117.56134000,N,15749.01112781,W,1,05,2.87,20.00,M,-21.3213,M,,*5C
$GPGGA,090036.00,2117.56134000,N,15749.01113937,W,1,05,2.87,20.00,M,-21.3213,M,,*54
$GPGGA,090036.10,2117.56134000,N,15749.01115093,W,1,05,2.87,20.00,M,-21.3213,M,,*54
$GPGGA,090036.20,2117.56134000,N,15749.01116250,W,1,05,2.87,20.00,M,-21.3213,M,,*59
$GPGGA,090036.30,2117.56134000,N,15749.01117406,W,1,05,2.87,20.00,M,-21.3213,M,,*5C
$GPGGA,090036.40,2117.56134000,N,15749.01118563,W,1,05,2.87,20.00,M,-21.3213,M,,*56
$GPGGA,090036.50,2117.56134000,N,15749.01119719,W,1,05,2.87,20.00,M,-21.3213,M,,*59
$GPGGA,090036.60,2117.56134000,N,15749.01120876,W,1,05,2.87,20.00,M,-21.3213,M,,*56
$GPGGA,090036.70,2117.56134000,N,15749.01122032,W,1,05,2.87,20.00,M,-21.3213,M,,*5D
$GPGGA,090036.80,2117.56134000,N,15749.01123189,W,1,05,2.87,20.00,M,-21.3213,M,,*52
$GPGGA,090036.90,2117.56134000,N,15749.01124345,W,1,05,2.87,20.00,M,-21.3213,M,,*56
$GPGGA,090037.00,2117.56134000,N,15749.01125501,W,1,05,2.87,20.00,M,-21.3213,M,,*59
$GPGGA,090037.10,2117.56134000,N,15749.01126658,W,1,05,2.87,20.00,M,-21.3213,M,,*54
$GPGGA,090037.20,2117.56134000,N,15749.01127814,W,1,05,2.87,20.00,M,-21.3213,M,,*50
$GPGGA,090037.30,2117.56134000,N,15749.01128971,W,1,05,2.87,20.00,M,-21.3213,M,,*5C
$GPGGA,090037.40,2117.56134000,N,15749.01130127,W,1,05,2.87,20.00,M,-21.3213,M,,*59
$GPGGA,090037.50,2117.56134000,N,15749.01131284,W,1,05,2.87,20.00,M,-21.3213,M,,*53
$GPGGA,090037.60,2117.56134000,N,15749.01132440,W,1,05,2.87,20.00,M,-21.3213,M,,*5D
$GPGGA,090037.70,2117.56134000,N,15749.01133597,W,1,05,2.87,20.00,M,-21.3213,M,,*56
$GPGGA,090037.80,2117.56134000,N,15749.01134753,W,1,05,2.87,20.00,M,-21.3213,M,,*54
$GPGGA,090037.90,2117.56134000,N,15749.01135909,W,1,05,2.87,20.00,M,-21.3213,M,,*55
$GPGGA,090038.00,2117.56134000,N,15749.01137066,W,1,05,2.87,20.00,M,-21.3213,M,,*51
$GPGGA,090038.10,2117.56134000,N,15749.01138222,W,1,05,2.87,20.00,M,-21.3213,M,,*5D
$GPGGA,090038.20,2117.56134000,N,15749.01139379,W,1,05,2.87,20.00,M,-21.3213,M,,*50
$GPGGA,090038.30,2117.56134000,N,15749.01140535,W,1,05,2.87,20.00,M,-21.3213,M,,*51
$GPGGA,090038.40,2117.56134000,N,15749.01141692,W,1,05,2.87,20.00,M,-21.3213,M,,*59
$GPGGA,090038.50,2117.56134000,N,15749.01142848,W,1,05,2.87,20.00,M,-21.3213,M,,*52
$GPGGA,090038.60,2117.56134000,N,15749.01144005,W,1,05,2.87,20.00,M,-21.3213,M,,*56
$GPGGA,090038.70,2117.56134000,N,15749.01145161,W,1,05,2.87,20.00,M,-21.3213,M,,*55
$GPGGA,090038.80,2117.56134000,N,15749.01146317,W,1,05,2.87,20.00,M,-21.3213,M,,*5A
$GPGGA,090038.90,2117.56134000,N,15749.01147474,W,1,05,2.87,20.00,M,-21.3213,M,,*58
$GPGGA,090039.00,2117.56134000,N,15749.01148630,W,1,05,2.87,20.00,M,-21.3213,M,,*5D
$GPGGA,090039.10,2117.56134000,N,15749.01149787,W,1,05,2.87,20.00,M,-21.3213,M,,*50
$GPGGA,090039.20,2117.56134000,N,15749.01150943,W,1,05,2.87,20.00,M,-21.3213,M,,*5D
$GPGGA,090039.30,2117.56134000,N,15749.01152100,W,1,05,2.87,20.00,M,-21.3213,M,,*51
$GPGGA,090039.40,2117.56134000,N,15749.01153256,W,1,05,2.87,20.00,M,-21.3213,M,,*57
$GPGGA,090039.50,2117.56134000,N,15749.01154413,W,1,05,2.87,20.00,M,-21.3213,M,,*56
$GPGGA,090039.60,2117.56134000,N,15749.01155569,W,1,05,2.87,20.00,M,-21.3213,M,,*58
$GPGGA,090039.70,2117.56134000,N,15749.01156725,W,1,05,2.87,20.00,M,-21.3213,M,,*50
$GPGGA,090039.80,2117.56134000,N,15749.01157882,W,1,05,2.87,20.00,M,-21.3213,M,,*5C
$GPGGA,090039.90,2117.56134000,N,15749.01159038,W,1,05,2.87,20.00,M,-21.3213,M,,*5A
$GPGGA,090040.00,2117.56134000,N,15749.01160195,W,1,05,2.87,20.00,M,-21.3213,M,,*51
$GPGGA,090040.10,2117.56134000,N,15749.01161351,W,1,05,2.87,20.00,M,-21.3213,M,,*5B
$GPGGA,090040.20,2117.56134000,N,15749.01162508,W,1,05,2.87,20.00,M,-21.3213,M,,*51
$GPGGA,090040.30,2117.56134000,N,15749.01163664,W,1,05,2.87,20.00,M,-21.3213,M,,*58
$GPGGA,090040.40,2117.56134000,N,15749.01164821,W,1,05,2.87,20.00,M,-21.3213,M,,*57
$GPGGA,090040.50,2117.56134000,N,15749.01165977,W,1,05,2.87,20.00,M,-21.3213,M,,*55
$GPGGA,090040.60,2117.56134000,N,15749.01167133,W,1,05,2.87,20.00,M,-21.3213,M,,*5C
$GPGGA,090040.70,2117.56134000,N,15749.01168290,W,1,05,2.87,20.00,M,-21.3213,M,,*58
$GPGGA,090040.80,2117.56134000,N,15749.01169446,W,1,05,2.87,20.00,M,-21.3213,M,,*5B
$GPGGA,090040.90,2117.56134000,N,15749.01170603,W,1,05,2.87,20.00,M,-21.3213,M,,*51
$GPGGA,090041.00,2117.56134000,N,15749.01171759,W,1,05,2.87,20.00,M,-21.3213,M,,*56
$GPGGA,090041.10,2117.56134000,N,15749.01172916,W,1,05,2.87,20.00,M,-21.3213,M,,*51
$GPGGA,090041.20,2117.56134000,N,15749.01174072,W,1,05,2.87,20.00,M,-21.3213,M,,*5F
$GPGGA,090041.30,2117.56134000,N,15749.01175229,W,1,05,2.87,20.00,M,-21.3213,M,,*53
$GPGGA,090041.40,2117.56134000,N,15749.01176385,W,1,05,2.87,20.00,M,-21.3213,M,,*50
$GPGGA,090041.50,2117.56134000,N,15749.01177541,W,1,05,2.87,20.00,M,-21.3213,M,,*5E
$GPGGA,090041.60,2117.56134000,N,15749.01178698,W,1,05,2.87,20.00,M,-21.3213,M,,*55
$GPGGA,090041.70,2117.56134000,N,15749.01179854,W,1,05,2.87,20.00,M,-21.3213,M,,*5B
$GPGGA,090041.80,2117.56134000,N,15749.01181011,W,1,05,2.87,20.00,M,-21.3213,M,,*5A
$GPGGA,090041.90,2117.56134000,N,15749.01182167,W,1,05,2.87,20.00,M,-21.3213,M,,*58
$GPGGA,090042.00,2117.56134000,N,15749.01183324,W,1,05,2.87,20.00,M,-21.3213,M,,*56
$GPGGA,090042.10,2117.56134000,N,15749.01184480,W,1,05,2.87,20.00,M,-21.3213,M,,*59
$GPGGA,090042.20,2117.56134000,N,15749.01185637,W,1,05,2.87,20.00,M,-21.3213,M,,*55
$GPGGA,090042.30,2117.56134000,N,15749.01186793,W,1,05,2.87,20.00,M,-21.3213,M,,*58
$GPGGA,090042.40,2117.56134000,N,15749.01187949,W,1,05,2.87,20.00,M,-21.3213,M,,*57
$GPGGA,090042.50,2117.56134000,N,15749.01189106,W,1,05,2.87,20.00,M,-21.3213,M,,*5B
$GPGGA,090042.60,2117.56134000,N,15749.01190262,W,1,05,2.87,20.00,M,-21.3213,M,,*51
$GPGGA,090042.70,2117.56134000,N,15749.01191419,W,1,05,2.87,20.00,M,-21.3213,M,,*5B
$GPGGA,090042.80,2117.56134000,N,15749.01192575,W,1,05,2.87,20.00,M,-21.3213,M,,*5C
$GPGGA,090042.90,2117.56134000,N,15749.01193732,W,1,05,2.87,20.00,M,-21.3213,M,,*5D
$GPGGA,090043.00,2117.56134000,N,15749.01194888,W,1,05,2.87,20.00,M,-21.3213,M,,*5C
$GPGGA,090043.10,2117.56134000,N,15749.01196045,W,1,05,2.87,20.00,M,-21.3213,M,,*56
$GPGGA,090043.20,2117.56134000,N,15749.01197201,W,1,05,2.87,20.00,M,-21.3213,M,,*56
$GPGGA,090043.30,2117.56134000,N,15749.01198357,W,1,05,2.87,20.00,M,-21.3213,M,,*5A
$GPGGA,090043.40,2117.56134000,N,15749.01199514,W,1,05,2.87,20.00,M,-21.3213,M,,*5D
$GPGGA,090043.50,2117.56134000,N,15749.01200670,W,1,05,2.87,20.00,M,-21.3213,M,,*5E
$GPGGA,090043.60,2117.56134000,N,15749.01201827,W,1,05,2.87,20.00,M,-21.3213,M,,*50
$GPGGA,090043.70,2117.56134000,N,15749.01202983,W,1,05,2.87,20.00,M,-21.3213,M,,*5D
$GPGGA,090043.80,2117.56134000,N,15749.01204140,W,1,05,2.87,20.00,M,-21.3213,M,,*53
$GPGGA,090043.90,2117.56134000,N,15749.01205296,W,1,05,2.87,20.00,M,-21.3213,M,,*5B
$GPGGA,090044.00,2117.56134000,N,15749.01206453,W,1,05,2.87,20.00,M,-21.3213,M,,*59
$GPGGA,090044.10,2117.56134000,N,15749.01207609,W,1,05,2.87,20.00,M,-21.3213,M,,*54
$GPGGA,090044.20,2117.56134000,N,15749.01208765,W,1,05,2.87,20.00,M,-21.3213,M,,*53
$GPGGA,090044.30,2117.56134000,N,15749.01209922,W,1,05,2.87,20.00,M,-21.3213,M,,*5E
$GPGGA,090044.40,2117.56134000,N,15749.01211078,W,1,05,2.87,20.00,M,-21.3213,M,,*56
$GPGGA,090044.50,2117.56134000,N,15749.01212235,W,1,05,2.87,20.00,M,-21.3213,M,,*5F
$GPGGA,090044.60,2117.56134000,N,15749.01213391,W,1,05,2.87,20.00,M,-21.3213,M,,*52
$GPGGA,090044.70,2117.56134000,N,15749.01214548,W,1,05,2.87,20.00,M,-21.3213,M,,*56
$GPGGA,090044.80,2117.56134000,N,15749.01215704,W,1,05,2.87,20.00,M,-21.3213,M,,*52
$GPGGA,090044.90,2117.56134000,N,15749.01216861,W,1,05,2.87,20.00,M,-21.3213,M,,*5C
$GPGGA,090045.00,2117.56134000,N,15749.01218017,W,1,05,2.87,20.00,M,-21.3213,M,,*53
$GPGGA,090045.10,2117.56134000,N,15749.01219173,W,1,05,2.87,20.00,M,-21.3213,M,,*50
$GPGGA,090045.20,2117.56134000,N,15749.01220330,W,1,05,2.87,20.00,M,-21.3213,M,,*5C
$GPGGA,090045.30,2117.56134000,N,15749.01221486,W,1,05,2.87,20.00,M,-21.3213,M,,*56
$GPGGA,090045.40,2117.56134000,N,15749.01222643,W,1,05,2.87,20.00,M,-21.3213,M,,*59
$GPGGA,090045.50,2117.56134000,N,15749.01223799,W,1,05,2.87,20.00,M,-21.3213,M,,*5F
$GPGGA,090045.60,2117.56134000,N,15749.01224956,W,1,05,2.87,20.00,M,-21.3213,M,,*56
$GPGGA,090045.70,2117.56134000,N,15749.01226112,W,1,05,2.87,20.00,M,-21.3213,M,,*5D
$GPGGA,090045.80,2117.56134000,N,15749.01227269,W,1,05,2.87,20.00,M,-21.3213,M,,*5C
$GPGGA,090045.90,2117.56134000,N,15749.01228425,W,1,05,2.87,20.00,M,-21.3213,M,,*5C
$GPGGA,090046.00,2117.56134000,N,15749.01229581,W,1,05,2.87,20.00,M,-21.3213,M,,*58
$GPGGA,090046.10,2117.56134000,N,15749.01230738,W,1,05,2.87,20.00,M,-21.3213,M,,*51
$GPGGA,090046.20,2117.56134000,N,15749.01231894,W,1,05,2.87,20.00,M,-21.3213,M,,*5A
$GPGGA,090046.30,2117.56134000,N,15749.01233051,W,1,05,2.87,20.00,M,-21.3213,M,,*58
$GPGGA,090046.40,2117.56134000,N,15749.01234207,W,1,05,2.87,20.00,M,-21.3213,M,,*59
$GPGGA,090046.50,2117.56134000,N,15749.01235364,W,1,05,2.87,20.00,M,-21.3213,M,,*5D
$GPGGA,090046.60,2117.56134000,N,15749.01236520,W,1,05,2.87,20.00,M,-21.3213,M,,*5B
$GPGGA,090046.70,2117.56134000,N,15749.01237677,W,1,05,2.87,20.00,M,-21.3213,M,,*5A
$GPGGA,090046.80,2117.56134000,N,15749.01238833,W,1,05,2.87,20.00,M,-21.3213,M,,*54
$GPGGA,090046.90,2117.56134000,N,15749.01239989,W,1,05,2.87,20.00,M,-21.3213,M,,*54
$GPGGA,090047.00,2117.56134000,N,15749.01241146,W,1,05,2.87,20.00,M,-21.3213,M,,*58
$GPGGA,090047.10,2117.56134000,N,15749.01242302,W,1,05,2.87,20.00,M,-21.3213,M,,*58
$GPGGA,090047.20,2117.56134000,N,15749.01243459,W,1,05,2.87,20.00,M,-21.3213,M,,*53
$GPGGA,090047.30,2117.56134000,N,15749.01244615,W,1,05,2.87,20.00,M,-21.3213,M,,*5F
$GPGGA,090047.40,2117.56134000,N,15749.01245772,W,1,05,2.87,20.00,M,-21.3213,M,,*59
$GPGGA,090047.50,2117.56134000,N,15749.01246928,W,1,05,2.87,20.00,M,-21.3213,M,,*5A
$GPGGA,090047.60,2117.56134000,N,15749.01248085,W,1,05,2.87,20.00,M,-21.3213,M,,*59
$GPGGA,090047.70,2117.56134000,N,15749.01249241,W,1,05,2.87,20.00,M,-21.3213,M,,*53
$GPGGA,090047.80,2117.56134000,N,15749.01250397,W,1,05,2.87,20.00,M,-21.3213,M,,*5E
$GPGGA,090047.90,2117.56134000,N,15749.01251554,W,1,05,2.87,20.00,M,-21.3213,M,,*57
$GPGGA,090048.00,2117.56134000,N,15749.01252710,W,1,05,2.87,20.00,M,-21.3213,M,,*50
$GPGGA,090048.10,2117.56134000,N,15749.01253867,W,1,05,2.87,20.00,M,-21.3213,M,,*5F
$GPGGA,090048.20,2117.56134000,N,15749.01255023,W,1,05,2.87,20.00,M,-21.3213,M,,*52
$GPGGA,090048.30,2117.56134000,N,15749.01256180,W,1,05,2.87,20.00,M,-21.3213,M,,*58
$GPGGA,090048.40,2117.56134000,N,15749.01257336,W,1,05,2.87,20.00,M,-21.3213,M,,*51
$GPGGA,090048.50,2117.56134000,N,15749.01258493,W,1,05,2.87,20.00,M,-21.3213,M,,*57
$GPGGA,090048.60,2117.56134000,N,15749.01259649,W,1,05,2.87,20.00,M,-21.3213,M,,*50
$GPGGA,090048.70,2117.56134000,N,15749.01260805,W,1,05,2.87,20.00,M,-21.3213,M,,*5D
$GPGGA,090048.80,2117.56134000,N,15749.01261962,W,1,05,2.87,20.00,M,-21.3213,M,,*53
$GPGGA,090048.90,2117.56134000,N,15749.01263118,W,1,05,2.87,20.00,M,-21.3213,M,,*55
$GPGGA,090049.00,2117.56134000,N,15749.01264275,W,1,05,2.87,20.00,M,-21.3213,M,,*52
$GPGGA,090049.10,2117.56134000,N,15749.01265431,W,1,05,2.87,20.00,M,-21.3213,M,,*54
$GPGGA,090049.20,2117.56134000,N,15749.01266588,W,1,05,2.87,20.00,M,-21.3213,M,,*57
$GPGGA,090049.30,2117.56134000,N,15749.01267744,W,1,05,2.87,20.00,M,-21.3213,M,,*55
$GPGGA,090049.40,2117.56134000,N,15749.01268901,W,1,05,2.87,20.00,M,-21.3213,M,,*52
$GPGGA,090049.50,2117.56134000,N,15749.01270057,W,1,05,2.87,20.00,M,-21.3213,M,,*50
$GPGGA,090049.60,2117.56134000,N,15749.01271213,W,1,05,2.87,20.00,M,-21.3213,M,,*50
$GPGGA,090049.70,2117.56134000,N,15749.01272370,W,1,05,2.87,20.00,M,-21.3213,M,,*56
$GPGGA,090049.80,2117.56134000,N,15749.01273526,W,1,05,2.87,20.00,M,-21.3213,M,,*5D
$GPGGA,090049.90,2117.56134000,N,15749.01274683,W,1,05,2.87,20.00,M,-21.3213,M,,*57
$GPGGA,090050.00,2117.56134000,N,15749.01275839,W,1,05,2.87,20.00,M,-21.3213,M,,*58
$GPGGA,090050.10,2117.56134000,N,15749.01276996,W,1,05,2.87,20.00,M,-21.3213,M,,*5E
$GPGGA,090050.20,2117.56134000,N,15749.01278152,W,1,05,2.87,20.00,M,-21.3213,M,,*53
$GPGGA,090050.30,2117.56134000,N,15749.01279309,W,1,05,2.87,20.00,M,-21.3213,M,,*5F
$GPGGA,090050.40,2117.56134000,N,15749.01280465,W,1,05,2.87,20.00,M,-21.3213,M,,*53
$GPGGA,090050.50,2117.56134000,N,15749.01281621,W,1,05,2.87,20.00,M,-21.3213,M,,*51
$GPGGA,090050.60,2117.56134000,N,15749.01282778,W,1,05,2.87,20.00,M,-21.3213,M,,*5C
$GPGGA,090050.70,2117.56134000,N,15749.01283934,W,1,05,2.87,20.00,M,-21.3213,M,,*5A
$GPGGA,090050.80,2117.56134000,N,15749.01285091,W,1,05,2.87,20.00,M,-21.3213,M,,*55
$GPGGA,090050.90,2117.56134000,N,15749.01286247,W,1,05,2.87,20.00,M,-21.3213,M,,*5E
$GPGGA,090051.00,2117.56134000,N,15749.01287404,W,1,05,2.87,20.00,M,-21.3213,M,,*56
$GPGGA,090051.10,2117.56134000,N,15749.01288560,W,1,05,2.87,20.00,M,-21.3213,M,,*5B
$GPGGA,090051.20,2117.56134000,N,15749.01289717,W,1,05,2.87,20.00,M,-21.3213,M,,*5B
$GPGGA,090051.30,2117.56134000,N,15749.01290873,W,1,05,2.87,20.00,M,-21.3213,M,,*5F
$GPGGA,090051.40,2117.56134000,N,15749.01292029,W,1,05,2.87,20.00,M,-21.3213,M,,*5D
$GPGGA,090051.50,2117.56134000,N,15749.01293186,W,1,05,2.87,20.00,M,-21.3213,M,,*59
$GPGGA,090051.60,2117.56134000,N,15749.01294342,W,1,05,2.87,20.00,M,-21.3213,M,,*57
$GPGGA,090051.70,2117.56134000,N,15749.01295499,W,1,05,2.87,20.00,M,-21.3213,M,,*56
$GPGGA,090051.80,2117.56134000,N,15749.01296655,W,1,05,2.87,20.00,M,-21.3213,M,,*58
$GPGGA,090051.90,2117.56134000,N,15749.01297812,W,1,05,2.87,20.00,M,-21.3213,M,,*55
$GPGGA,090052.00,2117.56134000,N,15749.01298968,W,1,05,2.87,20.00,M,-21.3213,M,,*5C
$GPGGA,090052.10,2117.56134000,N,15749.01300125,W,1,05,2.87,20.00,M,-21.3213,M,,*5C
$GPGGA,090052.20,2117.56134000,N,15749.01301281,W,1,05,2.87,20.00,M,-21.3213,M,,*53
$GPGGA,090052.30,2117.56134000,N,15749.01302437,W,1,05,2.87,20.00,M,-21.3213,M,,*5A
$GPGGA,090052.40,2117.56134000,N,15749.01303594,W,1,05,2.87,20.00,M,-21.3213,M,,*54
$GPGGA,090052.50,2117.56134000,N,15749.01304750,W,1,05,2.87,20.00,M,-21.3213,M,,*58
$GPGGA,090052.60,2117.56134000,N,15749.01305907,W,1,05,2.87,20.00,M,-21.3213,M,,*56
$GPGGA,090052.70,2117.56134000,N,15749.01307063,W,1,05,2.87,20.00,M,-21.3213,M,,*5E
$GPGGA,090052.80,2117.56134000,N,15749.01308220,W,1,05,2.87,20.00,M,-21.3213,M,,*5B
$GPGGA,090052.90,2117.56134000,N,15749.01309376,W,1,05,2.87,20.00,M,-21.3213,M,,*59
$GPGGA,090053.00,2117.56134000,N,15749.01310533,W,1,05,2.87,20.00,M,-21.3213,M,,*5E
$GPGGA,090053.10,2117.56134000,N,15749.01311689,W,1,05,2.87,20.00,M,-21.3213,M,,*5C
$GPGGA,090053.20,2117.56134000,N,15749.01312845,W,1,05,2.87,20.00,M,-21.3213,M,,*52
$GPGGA,090053.30,2117.56134000,N,15749.01314002,W,1,05,2.87,20.00,M,-21.3213,M,,*5E
$GPGGA,090053.40,2117.56134000,N,15749.01315158,W,1,05,2.87,20.00,M,-21.3213,M,,*56
$GPGGA,090053.50,2117.56134000,N,15749.01316315,W,1,05,2.87,20.00,M,-21.3213,M,,*5F
$GPGGA,090053.60,2117.56134000,N,15749.01317471,W,1,05,2.87,20.00,M,-21.3213,M,,*58
$GPGGA,090053.70,2117.56134000,N,15749.01318628,W,1,05,2.87,20.00,M,-21.3213,M,,*58
$GPGGA,090053.80,2117.56134000,N,15749.01319784,W,1,05,2.87,20.00,M,-21.3213,M,,*51
$GPGGA,090053.90,2117.56134000,N,15749.01320941,W,1,05,2.87,20.00,M,-21.3213,M,,*5D
$GPGGA,090054.00,2117.56134000,N,15749.01322097,W,1,05,2.87,20.00,M,-21.3213,M,,*53
$GPGGA,090054.10,2117.56134000,N,15749.01323253,W,1,05,2.87,20.00,M,-21.3213,M,,*59
$GPGGA,090054.20,2117.56134000,N,15749.01324410,W,1,05,2.87,20.00,M,-21.3213,M,,*5C
$GPGGA,090054.30,2117.56134000,N,15749.01325566,W,1,05,2.87,20.00,M,-21.3213,M,,*5C
$GPGGA,090054.40,2117.56134000,N,15749.01326723,W,1,05,2.87,20.00,M,-21.3213,M,,*5B
$GPGGA,090054.50,2117.56134000,N,15749.01327879,W,1,05,2.87,20.00,M,-21.3213,M,,*5B
$GPGGA,090054.60,2117.56134000,N,15749.01329036,W,1,05,2.87,20.00,M,-21.3213,M,,*55
$GPGGA,090054.70,2117.56134000,N,15749.01330192,W,1,05,2.87,20.00,M,-21.3213,M,,*53
$GPGGA,090054.80,2117.56134000,N,15749.01331349,W,1,05,2.87,20.00,M,-21.3213,M,,*59
$GPGGA,090054.90,2117.56134000,N,15749.01332505,W,1,05,2.87,20.00,M,-21.3213,M,,*55
$GPGGA,090055.00,2117.56134000,N,15749.01333661,W,1,05,2.87,20.00,M,-21.3213,M,,*5D
$GPGGA,090055.10,2117.56134000,N,15749.01334818,W,1,05,2.87,20.00,M,-21.3213,M,,*5B
$GPGGA,090055.20,2117.56134000,N,15749.01335974,W,1,05,2.87,20.00,M,-21.3213,M,,*52
$GPGGA,090055.30,2117.56134000,N,15749.01337131,W,1,05,2.87,20.00,M,-21.3213,M,,*58
$GPGGA,090055.40,2117.56134000,N,15749.01338287,W,1,05,2.87,20.00,M,-21.3213,M,,*5E
$GPGGA,090055.50,2117.56134000,N,15749.01339444,W,1,05,2.87,20.00,M,-21.3213,M,,*57
$GPGGA,090055.60,2117.56134000,N,15749.01340600,W,1,05,2.87,20.00,M,-21.3213,M,,*58
$GPGGA,090055.70,2117.56134000,N,15749.01341757,W,1,05,2.87,20.00,M,-21.3213,M,,*5B
$GPGGA,090055.80,2117.56134000,N,15749.01342913,W,1,05,2.87,20.00,M,-21.3213,M,,*59
$GPGGA,090055.90,2117.56134000,N,15749.01344069,W,1,05,2.87,20.00,M,-21.3213,M,,*5A
$GPGGA,090056.00,2117.56134000,N,15749.01345226,W,1,05,2.87,20.00,M,-21.3213,M,,*58
$GPGGA,090056.10,2117.56134000,N,15749.01346382,W,1,05,2.87,20.00,M,-21.3213,M,,*55
$GPGGA,090056.20,2117.56134000,N,15749.01347539,W,1,05,2.87,20.00,M,-21.3213,M,,*51
$GPGGA,090056.30,2117.56134000,N,15749.01348695,W,1,05,2.87,20.00,M,-21.3213,M,,*5A
$GPGGA,090056.40,2117.56134000,N,15749.01349852,W,1,05,2.87,20.00,M,-21.3213,M,,*59
$GPGGA,090056.50,2117.56134000,N,15749.01351008,W,1,05,2.87,20.00,M,-21.3213,M,,*56
$GPGGA,090056.60,2117.56134000,N,15749.01352165,W,1,05,2.87,20.00,M,-21.3213,M,,*5C
$GPGGA,090056.70,2117.56134000,N,15749.01353321,W,1,05,2.87,20.00,M,-21.3213,M,,*5E
$GPGGA,090056.80,2117.56134000,N,15749.01354477,W,1,05,2.87,20.00,M,-21.3213,M,,*52
$GPGGA,090056.90,2117.56134000,N,15749.01355634,W,1,05,2.87,20.00,M,-21.3213,M,,*57
$GPGGA,090057.00,2117.56134000,N,15749.01356790,W,1,05,2.87,20.00,M,-21.3213,M,,*53
$GPGGA,090057.10,2117.56134000,N,15749.01357947,W,1,05,2.87,20.00,M,-21.3213,M,,*57
$GPGGA,090057.20,2117.56134000,N,15749.01359103,W,1,05,2.87,20.00,M,-21.3213,M,,*52
$GPGGA,090057.30,2117.56134000,N,15749.01360260,W,1,05,2.87,20.00,M,-21.3213,M,,*5F
$GPGGA,090057.40,2117.56134000,N,15749.01361416,W,1,05,2.87,20.00,M,-21.3213,M,,*5E
$GPGGA,090057.50,2117.56134000,N,15749.01362573,W,1,05,2.87,20.00,M,-21.3213,M,,*5E
$GPGGA,090057.60,2117.56134000,N,15749.01363729,W,1,05,2.87,20.00,M,-21.3213,M,,*51
$GPGGA,090057.70,2117.56134000,N,15749.01364885,W,1,05,2.87,20.00,M,-21.3213,M,,*5E
$GPGGA,090057.80,2117.56134000,N,15749.01366042,W,1,05,2.87,20.00,M,-21.3213,M,,*50
$GPGGA,090057.90,2117.56134000,N,15749.01367198,W,1,05,2.87,20.00,M,-21.3213,M,,*56
$GPGGA,090058.00,2117.56134000,N,15749.01368355,W,1,05,2.87,20.00,M,-21.3213,M,,*5C
$GPGGA,090058.10,2117.56134000,N,15749.01369511,W,1,05,2.87,20.00,M,-21.3213,M,,*5A
$GPGGA,090058.20,2117.56134000,N,15749.01370668,W,1,05,2.87,20.00,M,-21.3213,M,,*5C
$GPGGA,090058.30,2117.56134000,N,15749.01371824,W,1,05,2.87,20.00,M,-21.3213,M,,*5A
$GPGGA,090058.40,2117.56134000,N,15749.01372981,W,1,05,2.87,20.00,M,-21.3213,M,,*50
$GPGGA,090058.50,2117.56134000,N,15749.01374137,W,1,05,2.87,20.00,M,-21.3213,M,,*52
$GPGGA,090058.60,2117.56134000,N,15749.01375293,W,1,05,2.87,20.00,M,-21.3213,M,,*5D
$GPGGA,090058.70,2117.56134000,N,15749.01376450,W,1,05,2.87,20.00,M,-21.3213,M,,*56
$GPGGA,090058.80,2117.56134000,N,15749.01377606,W,1,05,2.87,20.00,M,-21.3213,M,,*59
$GPGGA,090058.90,2117.56134000,N,15749.01378763,W,1,05,2.87,20.00,M,-21.3213,M,,*55
$GPGGA,090059.00,2117.56134000,N,15749.01379919,W,1,05,2.87,20.00,M,-21.3213,M,,*5F
$GPGGA,090059.10,2117.56134000,N,15749.01381076,W,1,05,2.87,20.00,M,-21.3213,M,,*59
$GPGGA,090059.20,2117.56134000,N,15749.01382232,W,1,05,2.87,20.00,M,-21.3213,M,,*5B
$GPGGA,090059.30,2117.56134000,N,15749.01383389,W,1,05,2.87,20.00,M,-21.3213,M,,*5A
$GPGGA,090059.40,2117.56134000,N,15749.01384545,W,1,05,2.87,20.00,M,-21.3213,M,,*5C
$GPGGA,090059.50,2117.56134000,N,15749.01385701,W,1,05,2.87,20.00,M,-21.3213,M,,*5E
$GPGGA,090059.60,2117.56134000,N,15749.01386858,W,1,05,2.87,20.00,M,-21.3213,M,,*5D
$GPGGA,090059.70,2117.56134000,N,15749.01388014,W,1,05,2.87,20.00,M,-21.3213,M,,*52
$GPGGA,090059.80,2117.56134000,N,15749.01389171,W,1,05,2.87,20.00,M,-21.3213,M,,*5E
$GPGGA,090059.90,2117.56134000,N,15749.01390327,W,1,05,2.87,20.00,M,-21.3213,M,,*56
$GPGGA,090100.00,2117.56134000,N,15749.01391484,W,1,05,2.87,20.00,M,-21.3213,M,,*5D
$GPGGA,090100.10,2117.56134000,N,15749.01392640,W,1,05,2.87,20.00,M,-21.3213,M,,*55
$GPGGA,090100.20,2117.56134000,N,15749.01393797,W,1,05,2.87,20.00,M,-21.3213,M,,*5C
$GPGGA,090100.30,2117.56134000,N,15749.01394953,W,1,05,2.87,20.00,M,-21.3213,M,,*5C
$GPGGA,090100.40,2117.56134000,N,15749.01396109,W,1,05,2.87,20.00,M,-21.3213,M,,*5E
$GPGGA,090100.50,2117.56134000,N,15749.01397266,W,1,05,2.87,20.00,M,-21.3213,M,,*54
$GPGGA,090100.60,2117.56134000,N,15749.01398422,W,1,05,2.87,20.00,M,-21.3213,M,,*5E
$GPGGA,090100.70,2117.56134000,N,15749.01399579,W,1,05,2.87,20.00,M,-21.3213,M,,*51
$GPGGA,090100.80,2117.56134000,N,15749.01400735,W,1,05,2.87,20.00,M,-21.3213,M,,*53
$GPGGA,090100.90,2117.56134000,N,15749.01401892,W,1,05,2.87,20.00,M,-21.3213,M,,*51
$GPGGA,090101.00,2117.56134000,N,15749.01403048,W,1,05,2.87,20.00,M,-21.3213,M,,*54
$GPGGA,090101.10,2117.56134000,N,15749.01404205,W,1,05,2.87,20.00,M,-21.3213,M,,*59
$GPGGA,090101.20,2117.56134000,N,15749.01405361,W,1,05,2.87,20.00,M,-21.3213,M,,*58
$GPGGA,090101.30,2117.56134000,N,15749.01406517,W,1,05,2.87,20.00,M,-21.3213,M,,*5D
$GPGGA,090101.40,2117.56134000,N,15749.01407674,W,1,05,2.87,20.00,M,-21.3213,M,,*5D
$GPGGA,090101.50,2117.56134000,N,15749.01408830,W,1,05,2.87,20.00,M,-21.3213,M,,*5D
$GPGGA,090101.60,2117.56134000,N,15749.01409987,W,1,05,2.87,20.00,M,-21.3213,M,,*52
$GPGGA,090101.70,2117.56134000,N,15749.01411143,W,1,05,2.87,20.00,M,-21.3213,M,,*5A
$GPGGA,090101.80,2117.56134000,N,15749.01412300,W,1,05,2.87,20.00,M,-21.3213,M,,*53
$GPGGA,090101.90,2117.56134000,N,15749.01413456,W,1,05,2.87,20.00,M,-21.3213,M,,*57
$GPGGA,090102.00,2117.56134000,N,15749.01414613,W,1,05,2.87,20.00,M,-21.3213,M,,*59
$GPGGA,090102.10,2117.56134000,N,15749.01415769,W,1,05,2.87,20.00,M,-21.3213,M,,*55
$GPGGA,090102.20,2117.56134000,N,15749.01416925,W,1,05,2.87,20.00,M,-21.3213,M,,*53
$GPGGA,090102.30,2117.56134000,N,15749.01418082,W,1,05,2.87,20.00,M,-21.3213,M,,*58
$GPGGA,090102.40,2117.56134000,N,15749.01419238,W,1,05,2.87,20.00,M,-21.3213,M,,*5D
$GPGGA,090102.50,2117.56134000,N,15749.01420395,W,1,05,2.87,20.00,M,-21.3213,M,,*50
$GPGGA,090102.60,2117.56134000,N,15749.01421551,W,1,05,2.87,20.00,M,-21.3213,M,,*5C
$GPGGA,090102.70,2117.56134000,N,15749.01422708,W,1,05,2.87,20.00,M,-21.3213,M,,*50
$GPGGA,090102.80,2117.56134000,N,15749.01423864,W,1,05,2.87,20.00,M,-21.3213,M,,*5B
$GPGGA,090102.90,2117.56134000,N,15749.01425021,W,1,05,2.87,20.00,M,-21.3213,M,,*55
$GPGGA,090103.00,2117.56134000,N,15749.01426177,W,1,05,2.87,20.00,M,-21.3213,M,,*5C
$GPGGA,090103.10,2117.56134000,N,15749.01427333,W,1,05,2.87,20.00,M,-21.3213,M,,*5E
$GPGGA,090103.20,2117.56134000,N,15749.01428490,W,1,05,2.87,20.00,M,-21.3213,M,,*5C
$GPGGA,090103.30,2117.56134000,N,15749.01429646,W,1,05,2.87,20.00,M,-21.3213,M,,*55
$GPGGA,090103.40,2117.56134000,N,15749.01430803,W,1,05,2.87,20.00,M,-21.3213,M,,*55
$GPGGA,090103.50,2117.56134000,N,15749.01431959,W,1,05,2.87,20.00,M,-21.3213,M,,*5B
$GPGGA,090103.60,2117.56134000,N,15749.01433116,W,1,05,2.87,20.00,M,-21.3213,M,,*59
$GPGGA,090103.70,2117.56134000,N,15749.01434272,W,1,05,2.87,20.00,M,-21.3213,M,,*5E
$GPGGA,090103.80,2117.56134000,N,15749.01435428,W,1,05,2.87,20.00,M,-21.3213,M,,*59
$GPGGA,090103.90,2117.56134000,N,15749.01436585,W,1,05,2.87,20.00,M,-21.3213,M,,*5D
$GPGGA,090104.00,2117.56134000,N,15749.01437741,W,1,05,2.87,20.00,M,-21.3213,M,,*58
$GPGGA,090104.10,2117.56134000,N,15749.01438898,W,1,05,2.87,20.00,M,-21.3213,M,,*5D
$GPGGA,090104.20,2117.56134000,N,15749.01440054,W,1,05,2.87,20.00,M,-21.3213,M,,*59
$GPGGA,090104.30,2117.56134000,N,15749.01441211,W,1,05,2.87,20.00,M,-21.3213,M,,*5A
$GPGGA,090104.40,2117.56134000,N,15749.01442367,W,1,05,2.87,20.00,M,-21.3213,M,,*5E
$GPGGA,090104.50,2117.56134000,N,15749.01443524,W,1,05,2.87,20.00,M,-21.3213,M,,*5F
$GPGGA,090104.60,2117.56134000,N,15749.01444680,W,1,05,2.87,20.00,M,-21.3213,M,,*56
$GPGGA,090104.70,2117.56134000,N,15749.01445837,W,1,05,2.87,20.00,M,-21.3213,M,,*54
$GPGGA,090104.80,2117.56134000,N,15749.01446993,W,1,05,2.87,20.00,M,-21.3213,M,,*57
$GPGGA,090104.90,2117.56134000,N,15749.01448149,W,1,05,2.87,20.00,M,-21.3213,M,,*57
$GPGGA,090105.00,2117.56134000,N,15749.01449306,W,1,05,2.87,20.00,M,-21.3213,M,,*57
$GPGGA,090105.10,2117.56134000,N,15749.01450462,W,1,05,2.87,20.00,M,-21.3213,M,,*5B
$GPGGA,090105.20,2117.56134000,N,15749.01451619,W,1,05,2.87,20.00,M,-21.3213,M,,*57
$GPGGA,090105.30,2117.56134000,N,15749.01452775,W,1,05,2.87,20.00,M,-21.3213,M,,*5E
$GPGGA,090105.40,2117.56134000,N,15749.01453932,W,1,05,2.87,20.00,M,-21.3213,M,,*55
$GPGGA,090105.50,2117.56134000,N,15749.01455088,W,1,05,2.87,20.00,M,-21.3213,M,,*5A
$GPGGA,090105.60,2117.56134000,N,15749.01456244,W,1,05,2.87,20.00,M,-21.3213,M,,*58
$GPGGA,090105.70,2117.56134000,N,15749.01457401,W,1,05,2.87,20.00,M,-21.3213,M,,*5F
$GPGGA,090105.80,2117.56134000,N,15749.01458557,W,1,05,2.87,20.00,M,-21.3213,M,,*5D
$GPGGA,090105.90,2117.56134000,N,15749.01459714,W,1,05,2.87,20.00,M,-21.3213,M,,*58
$GPGGA,090106.00,2117.56134000,N,15749.01460870,W,1,05,2.87,20.00,M,-21.3213,M,,*55
$GPGGA,090106.10,2117.56134000,N,15749.01462027,W,1,05,2.87,20.00,M,-21.3213,M,,*5C
$GPGGA,090106.20,2117.56134000,N,15749.01463183,W,1,05,2.87,20.00,M,-21.3213,M,,*51
$GPGGA,090106.30,2117.56134000,N,15749.01464340,W,1,05,2.87,20.00,M,-21.3213,M,,*5A
$GPGGA,090106.40,2117.56134000,N,15749.01465496,W,1,05,2.87,20.00,M,-21.3213,M,,*50
$GPGGA,090106.50,2117.56134000,N,15749.01466652,W,1,05,2.87,20.00,M,-21.3213,M,,*58
$GPGGA,090106.60,2117.56134000,N,15749.01467809,W,1,05,2.87,20.00,M,-21.3213,M,,*5A
$GPGGA,090106.70,2117.56134000,N,15749.01468965,W,1,05,2.87,20.00,M,-21.3213,M,,*5F
$GPGGA,090106.80,2117.56134000,N,15749.01470122,W,1,05,2.87,20.00,M,-21.3213,M,,*52
$GPGGA,090106.90,2117.56134000,N,15749.01471278,W,1,05,2.87,20.00,M,-21.3213,M,,*5E
$GPGGA,090107.00,2117.56134000,N,15749.01472435,W,1,05,2.87,20.00,M,-21.3213,M,,*5A
$GPGGA,090107.10,2117.56134000,N,15749.01473591,W,1,05,2.87,20.00,M,-21.3213,M,,*55
$GPGGA,090107.20,2117.56134000,N,15749.01474748,W,1,05,2.87,20.00,M,-21.3213,M,,*57
$GPGGA,090107.30,2117.56134000,N,15749.01475904,W,1,05,2.87,20.00,M,-21.3213,M,,*51
$GPGGA,090107.40,2117.56134000,N,15749.01477060,W,1,05,2.87,20.00,M,-21.3213,M,,*5F
$GPGGA,090107.50,2117.56134000,N,15749.01478217,W,1,05,2.87,20.00,M,-21.3213,M,,*53
$GPGGA,090107.60,2117.56134000,N,15749.01479373,W,1,05,2.87,20.00,M,-21.3213,M,,*52
$GPGGA,090107.70,2117.56134000,N,15749.01480530,W,1,05,2.87,20.00,M,-21.3213,M,,*54
$GPGGA,090107.80,2117.56134000,N,15749.01481686,W,1,05,2.87,20.00,M,-21.3213,M,,*54
$GPGGA,090107.90,2117.56134000,N,15749.01482843,W,1,05,2.87,20.00,M,-21.3213,M,,*51
$GPGGA,090108.00,2117.56134000,N,15749.01483999,W,1,05,2.87,20.00,M,-21.3213,M,,*50
$GPGGA,090108.10,2117.56134000,N,15749.01485156,W,1,05,2.87,20.00,M,-21.3213,M,,*5C
$GPGGA,090108.20,2117.56134000,N,15749.01486312,W,1,05,2.87,20.00,M,-21.3213,M,,*5E
$GPGGA,090108.30,2117.56134000,N,15749.01487469,W,1,05,2.87,20.00,M,-21.3213,M,,*55
$GPGGA,090108.40,2117.56134000,N,15749.01488625,W,1,05,2.87,20.00,M,-21.3213,M,,*57
$GPGGA,090108.50,2117.56134000,N,15749.01489781,W,1,05,2.87,20.00,M,-21.3213,M,,*58
$GPGGA,090108.60,2117.56134000,N,15749.01490938,W,1,05,2.87,20.00,M,-21.3213,M,,*5F
$GPGGA,090108.70,2117.56134000,N,15749.01492094,W,1,05,2.87,20.00,M,-21.3213,M,,*53
$GPGGA,090108.80,2117.56134000,N,15749.01493251,W,1,05,2.87,20.00,M,-21.3213,M,,*56
$GPGGA,090108.90,2117.56134000,N,15749.01494407,W,1,05,2.87,20.00,M,-21.3213,M,,*55
$GPGGA,090109.00,2117.56134000,N,15749.01495564,W,1,05,2.87,20.00,M,-21.3213,M,,*58
$GPGGA,090109.10,2117.56134000,N,15749.01496720,W,1,05,2.87,20.00,M,-21.3213,M,,*58
$GPGGA,090109.20,2117.56134000,N,15749.01497876,W,1,05,2.87,20.00,M,-21.3213,M,,*56
$GPGGA,090109.30,2117.56134000,N,15749.01499033,W,1,05,2.87,20.00,M,-21.3213,M,,*50
$GPGGA,090109.40,2117.56134000,N,15749.01500189,W,1,05,2.87,20.00,M,-21.3213,M,,*56
$GPGGA,090109.50,2117.56134000,N,15749.01501346,W,1,05,2.87,20.00,M,-21.3213,M,,*57
$GPGGA,090109.60,2117.56134000,N,15749.01502502,W,1,05,2.87,20.00,M,-21.3213,M,,*51
$GPGGA,090109.70,2117.56134000,N,15749.01503659,W,1,05,2.87,20.00,M,-21.3213,M,,*5C
$GPGGA,090109.80,2117.56134000,N,15749.01504815,W,1,05,2.87,20.00,M,-21.3213,M,,*52
$GPGGA,090109.90,2117.56134000,N,15749.01505972,W,1,05,2.87,20.00,M,-21.3213,M,,*52
$GPGGA,090110.00,2117.56134000,N,15749.01507128,W,1,05,2.87,20.00,M,-21.3213,M,,*56
$GPGGA,090110.10,2117.56134000,N,15749.01508284,W,1,05,2.87,20.00,M,-21.3213,M,,*5D
$GPGGA,090110.20,2117.56134000,N,15749.01509441,W,1,05,2.87,20.00,M,-21.3213,M,,*50
$GPGGA,090110.30,2117.56134000,N,15749.01510597,W,1,05,2.87,20.00,M,-21.3213,M,,*53
$GPGGA,090110.40,2117.56134000,N,15749.01511754,W,1,05,2.87,20.00,M,-21.3213,M,,*58
$GPGGA,090110.50,2117.56134000,N,15749.01512910,W,1,05,2.87,20.00,M,-21.3213,M,,*54
$GPGGA,090110.60,2117.56134000,N,15749.01514067,W,1,05,2.87,20.00,M,-21.3213,M,,*58
$GPGGA,090110.70,2117.56134000,N,15749.01515223,W,1,05,2.87,20.00,M,-21.3213,M,,*5A
$GPGGA,090110.80,2117.56134000,N,15749.01516380,W,1,05,2.87,20.00,M,-21.3213,M,,*5E
$GPGGA,090110.90,2117.56134000,N,15749.01517536,W,1,05,2.87,20.00,M,-21.3213,M,,*55
$GPGGA,090111.00,2117.56134000,N,15749.01518691,W,1,05,2.87,20.00,M,-21.3213,M,,*5C
$GPGGA,090111.10,2117.56134000,N,15749.01519836,W,1,05,2.87,20.00,M,-21.3213,M,,*5F
$GPGGA,090111.20,2117.56134000,N,15749.01520969,W,1,05,2.87,20.00,M,-21.3213,M,,*5D
$GPGGA,090111.30,2117.56134000,N,15749.01522091,W,1,05,2.87,20.00,M,-21.3213,M,,*50
